[{"county": "Cobb", "latitude": 33.807673, "name": "Pebblebrook High School", "longitude": -84.58356, "address": "991 Old Alabama Rd Sw Mableton, GA 30126"}, {"county": "Cobb", "latitude": 33.781524, "name": "Walton Reserve Apartments", "longitude": -84.601267, "address": "7075 Walton Reserve Ln, Austell, GA 30168"}, {"county": "Cobb", "latitude": 33.80854, "name": "Cenacle Coffee shop", "longitude": -84.636265, "address": "2844 Veterans Memorial Hwy SW, Austell, GA 30168"}, {"county": "Cobb", "latitude": 33.774226, "name": "Destiney World Church", "longitude": -84.581583, "address": "7400 Factory Shoals Rd, Austell, GA 30168"}, {"county": "Fulton", "latitude": 33.616174, "name": "Lift Community Development Center", "longitude": -84.463763, "address": "2300 Godby Rd, College Park, GA 30349"}, {"county": "Clayton", "latitude": 33.555536, "name": "Hearts to Nourish Hope", "longitude": -84.397997, "address": "640 GA-138, Riverdale, GA 30274"}, {"county": "Clayton", "latitude": 33.552701, "name": "Kinship Care", "longitude": -84.364174, "address": "849 Battle Creek Rd, Jonesboro, GA 30236"}, {"county": "DeKalb", "latitude": 33.791357, "name": "Decatur cooperative Ministries", "longitude": -84.285695, "address": "1523 Church St, Decatur, GA 30030"}, {"county": "Fulton", "latitude": 33.678502, "name": "Park Lane Elementary", "longitude": -84.423578, "address": "2809 Blount St, East Point, GA 30344"}, {"county": "Cobb", "latitude": 33.810089, "name": "Harmony Leland Elementary", "longitude": -84.558659, "address": "5891 Dodgen Rd SW, Mableton, GA 30126"}, {"county": "Gwinnett", "latitude": 33.923033, "name": "MeadowCreek High School", "longitude": -84.147188, "address": "4455 Steve Reynolds Blvd, Norcross, GA 30093"}, {"county": "Cobb", "latitude": 33.910102, "name": "MeadowCreek Elementary School", "longitude": -84.572145, "address": "5025 Georgia Belle Ct, Norcross, GA 30093"}, {"county": "Douglas", "latitude": 33.804935, "name": "Sweetwater Mission", "longitude": -84.636669, "address": "6289 Veterans Memorial Hwy #12a, Austell, GA 30168"}, {"county": "Clayton", "latitude": 33.524978, "name": "Perry Learning Center", "longitude": -84.35648, "address": "137 Spring St, Jonesboro, GA 30236"}, {"county": "Gwinnett", "latitude": 33.920088, "name": "Spring Lake Apartments", "longitude": -84.200046, "address": "100 Chase Common Dr, Norcross, GA 30071"}, {"county": "Gwinnett", "latitude": 33.930773, "name": "Willow Trail apartments", "longitude": -84.169349, "address": "1500 Willow Trail Dr, Norcross, GA 30093"}, {"county": "Gwinnett", "latitude": 33.910013, "name": "Woodland Ridge", "longitude": -84.157589, "address": "1355 Indian Trail Lilburn Rd NW, Norcross, GA 30093"}, {"county": "Cobb", "latitude": 33.93759, "name": "Yells, Inc.", "longitude": -84.506773, "address": "779 Franklin Gateway SE, Marietta, GA 30067"}, {"county": "DeKalb", "latitude": 33.847727, "name": "Action Ministries", "longitude": -84.311649, "address": "1700 Century Cir NE Suite 200 Atlanta, GA 30345"}, {"county": "Fulton", "latitude": 33.67196, "name": "Zion Hill Community Development Center", "longitude": -84.431864, "address": "2741 Bayard St, East Point, GA 30344"}]